[
    {
        "name": "Parkoviště Bondyho - POUZE DODÁVKY",
        "longitude": 14.4412911,
        "latitude": 50.1101778,
        "car_capacity": 0,
        "description": ""
    },
    {
        "name": "Parkoviště Rokytka - O2 Aréna",
        "longitude": 14.4971357,
        "latitude": 50.1074898,
        "car_capacity": 0,
        "description": ""
    },
    {
        "name": "Parkoviště Ohradní 1166/26",
        "longitude": 14.4572386,
        "latitude": 50.0524054,
        "car_capacity": 0,
        "description": ""
    },
    {
        "name": "Hilton Old Town -  V Celnici 2079/7",
        "longitude": 14.4317075,
        "latitude": 50.0886534,
        "car_capacity": 0,
        "description": ""
    },
    {
        "name": "A7 Office Center - Na Maninách 29",
        "longitude": 14.45220618881049,
        "latitude": 50.1062944168158,
        "car_capacity": 0,
        "description": ""
    },
    {
        "name": "Senovážná 1394/8",
        "longitude": 14.4293466,
        "latitude": 50.0864741,
        "car_capacity": 0,
        "description": ""
    },
    {
        "name": "Parkoviště Hůlkova 40",
        "longitude": 14.527745904228112,
        "latitude": 50.12755008750922,
        "car_capacity": 0,
        "description": ""
    },
    {
        "name": "Vladislavova 51/13",
        "longitude": 14.4209485,
        "latitude": 50.0804336,
        "car_capacity": 0,
        "description": ""
    },
    {
        "name": "Opletalova 1418/23",
        "longitude": 14.431821,
        "latitude": 50.0831484,
        "car_capacity": 0,
        "description": ""
    },
    {
        "name": "Štefánikova 18/25",
        "longitude": 14.4036425,
        "latitude": 50.0747285,
        "car_capacity": 0,
        "description": ""
    },
    {
        "name": "Parkoviště Stará Spojovací 2263/9 - O2 Aréna",
        "longitude": 14.4856807,
        "latitude": 50.1028984,
        "car_capacity": 0,
        "description": ""
    },
    {
        "name": "Pospíchalova",
        "longitude": 14.560684184333054,
        "latitude": 50.10422120242479,
        "car_capacity": 0,
        "description": ""
    },
    {
        "name": "Vysočanský mlýn B - Odkolkova 1046/3",
        "longitude": 14.504062,
        "latitude": 50.113444,
        "car_capacity": 0,
        "description": ""
    },
    {
        "name": "Ďáblická ",
        "longitude": 14.48196429418784,
        "latitude": 50.13250727808715,
        "car_capacity": 0,
        "description": ""
    },
    {
        "name": "Residence Trafick - Bohdalecká 1576/23c",
        "longitude": 14.46948433,
        "latitude": 50.05999313,
        "car_capacity": 0,
        "description": ""
    },
    {
        "name": "Innside by Melia Prague Old Town - Soukenická 25",
        "longitude": 14.43109988894627,
        "latitude": 50.09156264017315,
        "car_capacity": 0,
        "description": ""
    },
    {
        "name": "THE FIZZ - Na Zátorách 1625/1",
        "longitude": 14.43722299951807,
        "latitude": 50.108498628808995,
        "car_capacity": 0,
        "description": ""
    },
    {
        "name": "OC Háje - Arkalycká 757",
        "longitude": 14.528386539121948,
        "latitude": 50.031481426684046,
        "car_capacity": 0,
        "description": ""
    },
    {
        "name": "Studentská 1",
        "longitude": 14.389050131870636,
        "latitude": 50.10091641226344,
        "car_capacity": 0,
        "description": ""
    },
    {
        "name": "Rosmarin Business Center - Tovární",
        "longitude": 14.445415480182612,
        "latitude": 50.10249948892232,
        "car_capacity": 0,
        "description": ""
    },
    {
        "name": "AFI Home Kolbenova - Hindlova 1050/6",
        "longitude": 14.5182621,
        "latitude": 50.1113951,
        "car_capacity": 0,
        "description": ""
    },
    {
        "name": "Čerpadlová 1034/2 - O2 Aréna",
        "longitude": 14.506336,
        "latitude": 50.1009821,
        "car_capacity": 0,
        "description": ""
    },
    {
        "name": "Na Mlejnku 3124/39",
        "longitude": 14.409428783712826,
        "latitude": 50.03772776685716,
        "car_capacity": 0,
        "description": ""
    },
    {
        "name": "U Mlýnského kanálu 687/7 - Rezidence Vltava",
        "longitude": 14.450019987339127,
        "latitude": 50.09597691781048,
        "car_capacity": 0,
        "description": ""
    },
    {
        "name": "Mazurská 526/21",
        "longitude": 14.4114704,
        "latitude": 50.1273054,
        "car_capacity": 0,
        "description": ""
    },
    {
        "name": "Londýnská 159/43",
        "longitude": 14.4338916,
        "latitude": 50.0736851,
        "car_capacity": 0,
        "description": ""
    },
    {
        "name": "Hartigova 1691/116",
        "longitude": 14.4688018,
        "latitude": 50.0902357,
        "car_capacity": 0,
        "description": ""
    },
    {
        "name": "Parkoviště Karlovo náměstí 17",
        "longitude": 14.418565,
        "latitude": 50.077148,
        "car_capacity": 0,
        "description": ""
    },
    {
        "name": "Křižíkova 213/44",
        "longitude": 14.4530463,
        "latitude": 50.0928251,
        "car_capacity": 0,
        "description": ""
    },
    {
        "name": "Dynamica - Radlická",
        "longitude": 14.379094501155409,
        "latitude": 50.05605045626285,
        "car_capacity": 0,
        "description": ""
    },
    {
        "name": "Senovážné náměstí 1465/7",
        "longitude": 14.4314033,
        "latitude": 50.0861317,
        "car_capacity": 0,
        "description": ""
    },
    {
        "name": "Vítkova 7 - Garage Gallery",
        "longitude": 14.4456519,
        "latitude": 50.0901581,
        "car_capacity": 0,
        "description": ""
    },
    {
        "name": "Bastion Florenc - Křižíkova 2136/2A",
        "longitude": 14.438204334720224,
        "latitude": 50.08967808608559,
        "car_capacity": 0,
        "description": ""
    },
    {
        "name": "Cimburkova 7",
        "longitude": 14.4490916,
        "latitude": 50.0849852,
        "car_capacity": 0,
        "description": ""
    },
    {
        "name": "Keystone - Pobřežní 78",
        "longitude": 14.453853561881248,
        "latitude": 50.0952193252158,
        "car_capacity": 0,
        "description": ""
    },
    {
        "name": "Záhřebská 48",
        "longitude": 14.4399014,
        "latitude": 50.0731649,
        "car_capacity": 0,
        "description": ""
    },
    {
        "name": "Stroupežnického 19",
        "longitude": 14.4027081,
        "latitude": 50.0705605,
        "car_capacity": 0,
        "description": ""
    },
    {
        "name": "Pešlova",
        "longitude": 14.5016115021519,
        "latitude": 50.11192617331096,
        "car_capacity": 0,
        "description": ""
    },
    {
        "name": "Parkoviště ČSAD - Bondyho",
        "longitude": 14.4416881,
        "latitude": 50.1104444,
        "car_capacity": 0,
        "description": ""
    },
    {
        "name": "U Mlýnského kanálu 699/16 - Port Karolina B",
        "longitude": 14.450861572805703,
        "latitude": 50.09591192419037,
        "car_capacity": 0,
        "description": ""
    },
    {
        "name": "Aviatica - Kačírkova",
        "longitude": 14.3745275,
        "latitude": 50.0564844,
        "car_capacity": 0,
        "description": ""
    },
    {
        "name": "Parkoviště Ohradní 1394/61",
        "longitude": 14.458005963355518,
        "latitude": 50.05283701085479,
        "car_capacity": 0,
        "description": ""
    },
    {
        "name": "Ametyst - Jana Masaryka 523/11",
        "longitude": 14.436484391899178,
        "latitude": 50.07072830470594,
        "car_capacity": 0,
        "description": ""
    },
    {
        "name": "Aria Prague - Tržiště 9",
        "longitude": 14.4026458,
        "latitude": 50.0871271,
        "car_capacity": 0,
        "description": ""
    },
    {
        "name": "Opatov Park Líbalova 1",
        "longitude": 14.5083137,
        "latitude": 50.030161,
        "car_capacity": 0,
        "description": ""
    },
    {
        "name": "City Tower - Pankrác",
        "longitude": 14.4361698,
        "latitude": 50.0509564,
        "car_capacity": 0,
        "description": ""
    },
    {
        "name": "Churchill Square - Dudova",
        "longitude": 14.4392012,
        "latitude": 50.0840688,
        "car_capacity": 0,
        "description": ""
    },
    {
        "name": "Hartigova 152/8",
        "longitude": 14.4542194,
        "latitude": 50.0871613,
        "car_capacity": 0,
        "description": ""
    },
    {
        "name": "Rustonka - Sokolovská 115a",
        "longitude": 14.4672414,
        "latitude": 50.0988275,
        "car_capacity": 0,
        "description": ""
    },
    {
        "name": "ZZZ_IBC - Pobřežní 620",
        "longitude": 14.4411637,
        "latitude": 50.0932647,
        "car_capacity": 0,
        "description": ""
    },
    {
        "name": "Spálená 29",
        "longitude": 14.4196544,
        "latitude": 50.0804525,
        "car_capacity": 0,
        "description": ""
    },
    {
        "name": "Vysočanský mlýn A - Odkolkova 1045/10",
        "longitude": 14.504347,
        "latitude": 50.112833,
        "car_capacity": 0,
        "description": ""
    },
    {
        "name": "U Mlýnského kanálu 2  - Port Karolina A",
        "longitude": 14.450963431499732,
        "latitude": 50.095332782614875,
        "car_capacity": 0,
        "description": ""
    },
    {
        "name": "Parkoviště Vinohradská 1632/180",
        "longitude": 14.4707909,
        "latitude": 50.0780547,
        "car_capacity": 0,
        "description": ""
    },
    {
        "name": "Parkoviště Kobylisy - U Dětského domova 8",
        "longitude": 14.4503034,
        "latitude": 50.1235285,
        "car_capacity": 0,
        "description": ""
    },
    {
        "name": "Augustus - Na Celné 508/3",
        "longitude": 14.4094161,
        "latitude": 50.071054,
        "car_capacity": 0,
        "description": ""
    },
    {
        "name": "Crystal - Vinohradská 178",
        "longitude": 14.470116,
        "latitude": 50.0780534,
        "car_capacity": 0,
        "description": ""
    },
    {
        "name": "Vítězná 420",
        "longitude": 14.4049072,
        "latitude": 50.0812805,
        "car_capacity": 0,
        "description": ""
    },
    {
        "name": "Dlážděná 1586/4",
        "longitude": 14.4324253,
        "latitude": 50.0867602,
        "car_capacity": 0,
        "description": ""
    },
    {
        "name": "Green Point - Plzeňská 3351/19",
        "longitude": 14.398124803670964,
        "latitude": 50.07190038952189,
        "car_capacity": 0,
        "description": ""
    },
    {
        "name": "Brixen - Sokolská 1796/44",
        "longitude": 14.4294417,
        "latitude": 50.0741245,
        "car_capacity": 0,
        "description": ""
    },
    {
        "name": "The Greenline - Jihlavská 1558/21",
        "longitude": 14.457782275764885,
        "latitude": 50.04454378526614,
        "car_capacity": 0,
        "description": ""
    },
    {
        "name": "Parkoviště Křižíkova 2110/2b",
        "longitude": 14.439086132529443,
        "latitude": 50.08938632955002,
        "car_capacity": 0,
        "description": ""
    },
    {
        "name": "Říční 11",
        "longitude": 14.40544493007238,
        "latitude": 50.08186569433179,
        "car_capacity": 0,
        "description": ""
    },
    {
        "name": "V Tůních 1329/9",
        "longitude": 14.4269778,
        "latitude": 50.0765618,
        "car_capacity": 0,
        "description": ""
    },
    {
        "name": "Vojenova 6",
        "longitude": 14.4721767,
        "latitude": 50.1043478,
        "car_capacity": 0,
        "description": ""
    },
    {
        "name": "Rubešova 162/8",
        "longitude": 14.4327424,
        "latitude": 50.0776028,
        "car_capacity": 0,
        "description": ""
    },
    {
        "name": "Parkoviště Za Ženskými domovy 124/3",
        "longitude": 14.404490728690025,
        "latitude": 50.06815443114013,
        "car_capacity": 0,
        "description": ""
    },
    {
        "name": "Tower Park - Mahlerovy sady",
        "longitude": 14.4501822,
        "latitude": 50.0811961,
        "car_capacity": 0,
        "description": ""
    },
    {
        "name": "Andante - Ve Smečkách 1408/4",
        "longitude": 14.4266734,
        "latitude": 50.0776325,
        "car_capacity": 0,
        "description": ""
    },
    {
        "name": "AFI Home - Thámova 136/8",
        "longitude": 14.4530221,
        "latitude": 50.0914545,
        "car_capacity": 0,
        "description": ""
    },
    {
        "name": "Cube - Křemencova 18",
        "longitude": 14.4167164,
        "latitude": 50.0796225,
        "car_capacity": 0,
        "description": ""
    },
    {
        "name": "Olivova 4",
        "longitude": 14.4305853,
        "latitude": 50.0827986,
        "car_capacity": 0,
        "description": ""
    },
    {
        "name": "Parkoviště Tokovo - Jankovcova 1518/2",
        "longitude": 14.456055072367443,
        "latitude": 50.10475796974847,
        "car_capacity": 0,
        "description": ""
    },
    {
        "name": "I.P.Pavlova - Kateřinská 36",
        "longitude": 14.4274288,
        "latitude": 50.0749197,
        "car_capacity": 0,
        "description": ""
    },
    {
        "name": "SmichOFF - Plzeňská 3350/18",
        "longitude": 14.398400337909816,
        "latitude": 50.0723961800923,
        "car_capacity": 0,
        "description": ""
    },
    {
        "name": "Na Poříčí 1076/5",
        "longitude": 14.4309079,
        "latitude": 50.0893659,
        "car_capacity": 0,
        "description": ""
    },
    {
        "name": "Prosek Point - Prosecká 851/64",
        "longitude": 14.500359761510044,
        "latitude": 50.11825940737689,
        "car_capacity": 0,
        "description": ""
    },
    {
        "name": "GEN gallery - U Garáží",
        "longitude": 14.444784020466548,
        "latitude": 50.10131633691435,
        "car_capacity": 0,
        "description": ""
    },
    {
        "name": "Podolská 759",
        "longitude": 14.414606149966357,
        "latitude": 50.046605659969856,
        "car_capacity": 0,
        "description": ""
    },
    {
        "name": "Bozděchova 4",
        "longitude": 14.4041512,
        "latitude": 50.0704495,
        "car_capacity": 0,
        "description": ""
    },
    {
        "name": "Víta Nejedlého 665/20",
        "longitude": 14.4493025,
        "latitude": 50.0837326,
        "car_capacity": 0,
        "description": ""
    },
    {
        "name": "Španělská 12",
        "longitude": 14.435411546053855,
        "latitude": 50.080277364605166,
        "car_capacity": 0,
        "description": ""
    },
    {
        "name": "Na Florenci 29",
        "longitude": 14.436910849303842,
        "latitude": 50.089840760012876,
        "car_capacity": 0,
        "description": ""
    },
    {
        "name": "Panská 2",
        "longitude": 14.426442618973836,
        "latitude": 50.08496983594083,
        "car_capacity": 0,
        "description": ""
    },
    {
        "name": "Garáž Karlovo náměstí 17",
        "longitude": 14.4191094,
        "latitude": 50.0771736,
        "car_capacity": 0,
        "description": ""
    },
    {
        "name": "Hotel Carlo IV - Senovážné náměstí 13",
        "longitude": 14.433386106000025,
        "latitude": 50.08620006309065,
        "car_capacity": 0,
        "description": ""
    },
    {
        "name": "Palác Pyramida - Londýnská 452/79",
        "longitude": 14.4327277,
        "latitude": 50.0764703,
        "car_capacity": 0,
        "description": ""
    },
    {
        "name": "Praha City Center - Samcova 1216/4",
        "longitude": 14.433487188671544,
        "latitude": 50.09208088983289,
        "car_capacity": 0,
        "description": ""
    },
    {
        "name": "Luxembourg Plaza",
        "longitude": 14.459186228997938,
        "latitude": 50.079063103089815,
        "car_capacity": 0,
        "description": ""
    },
    {
        "name": "Křesomyslova 570/15",
        "longitude": 14.433127,
        "latitude": 50.064768,
        "car_capacity": 0,
        "description": ""
    },
    {
        "name": "Křižíkova 55/65",
        "longitude": 14.4502616,
        "latitude": 50.0925119,
        "car_capacity": 0,
        "description": ""
    },
    {
        "name": "BesNet Offices - Novodvorská 994",
        "longitude": 14.429163866568414,
        "latitude": 50.0273464155308,
        "car_capacity": 0,
        "description": ""
    },
    {
        "name": "OREA Pyramida - Pod Královkou 6",
        "longitude": 14.378849017107402,
        "latitude": 50.08616540619201,
        "car_capacity": 0,
        "description": ""
    },
    {
        "name": "Anglická 20",
        "longitude": 14.4337195,
        "latitude": 50.0762453,
        "car_capacity": 0,
        "description": ""
    },
    {
        "name": "U Vinných sklepů 99",
        "longitude": 14.4983115,
        "latitude": 50.112733,
        "car_capacity": 0,
        "description": ""
    },
    {
        "name": "Rubešova 2576/11",
        "longitude": 14.432584941677229,
        "latitude": 50.078339819062414,
        "car_capacity": 0,
        "description": ""
    },
    {
        "name": "Anděl Park - Radlická 14",
        "longitude": 14.4009956,
        "latitude": 50.0705288,
        "car_capacity": 0,
        "description": ""
    },
    {
        "name": "AFI Home - Zvěřinova 3481/1a",
        "longitude": 14.4825016,
        "latitude": 50.0843319,
        "car_capacity": 0,
        "description": ""
    },
    {
        "name": "Italská",
        "longitude": 14.439496,
        "latitude": 50.084517,
        "car_capacity": 2,
        "description": ""
    },
    {
        "name": "Na Žlábku",
        "longitude": 14.660561,
        "latitude": 49.969083,
        "car_capacity": 6,
        "description": ""
    },
    {
        "name": "Ke mlýnu",
        "longitude": 14.541397,
        "latitude": 49.971185,
        "car_capacity": 21,
        "description": ""
    },
    {
        "name": "U pomníku",
        "longitude": 14.45228,
        "latitude": 50.048807,
        "car_capacity": 7,
        "description": ""
    },
    {
        "name": "náměstí Republiky",
        "longitude": 14.42839,
        "latitude": 50.087613,
        "car_capacity": 13,
        "description": ""
    },
    {
        "name": "Na Okruhu",
        "longitude": 14.502809,
        "latitude": 49.969467,
        "car_capacity": 12,
        "description": ""
    },
    {
        "name": "náměstí Republiky",
        "longitude": 14.42891,
        "latitude": 50.089236,
        "car_capacity": 700,
        "description": ""
    },
    {
        "name": "K Sukovu",
        "longitude": 14.543673,
        "latitude": 50.012496,
        "car_capacity": 6,
        "description": ""
    },
    {
        "name": "Štěpánská",
        "longitude": 14.426198,
        "latitude": 50.080003,
        "car_capacity": 45,
        "description": ""
    },
    {
        "name": "Novosibřinská",
        "longitude": 14.661125,
        "latitude": 50.075716,
        "car_capacity": 6,
        "description": ""
    },
    {
        "name": "Hybernská",
        "longitude": 14.43653,
        "latitude": 50.087152,
        "car_capacity": 21,
        "description": ""
    },
    {
        "name": "Garáže Prašný Most",
        "longitude": 14.394643,
        "latitude": 50.094396,
        "car_capacity": 340,
        "description": ""
    },
    {
        "name": "Podzimní",
        "longitude": 14.253258,
        "latitude": 50.082011,
        "car_capacity": 1,
        "description": ""
    },
    {
        "name": "Podzimní",
        "longitude": 14.253306,
        "latitude": 50.081995,
        "car_capacity": 1,
        "description": ""
    },
    {
        "name": "Rudolfinum Parking",
        "longitude": 14.414824,
        "latitude": 50.089668,
        "car_capacity": 460,
        "description": ""
    },
    {
        "name": "Dostihová",
        "longitude": 14.393415,
        "latitude": 50.011649,
        "car_capacity": 30,
        "description": ""
    },
    {
        "name": "Pro návštěvy MÚ",
        "longitude": 14.389955,
        "latitude": 50.012124,
        "car_capacity": 2,
        "description": ""
    },
    {
        "name": "Garáže Filadelfie Building",
        "longitude": 14.453946,
        "latitude": 50.048786,
        "car_capacity": 102,
        "description": ""
    },
    {
        "name": "Tiché údolí",
        "longitude": 14.365199,
        "latitude": 50.148379,
        "car_capacity": 4,
        "description": ""
    },
    {
        "name": "P+R Chodov",
        "longitude": 14.491994,
        "latitude": 50.032073,
        "car_capacity": 653,
        "description": ""
    },
    {
        "name": "Starokolínská",
        "longitude": 14.658467,
        "latitude": 50.0763,
        "car_capacity": 8,
        "description": ""
    },
    {
        "name": "Sky Parking",
        "longitude": 14.277009,
        "latitude": 50.136742,
        "car_capacity": 200,
        "description": ""
    },
    {
        "name": "Na Pazderce",
        "longitude": 14.414616,
        "latitude": 50.124913,
        "car_capacity": 5,
        "description": ""
    },
    {
        "name": "Parking Národní divadlo",
        "longitude": 14.414467,
        "latitude": 50.080485,
        "car_capacity": 100,
        "description": ""
    },
    {
        "name": "Ke Karlovu",
        "longitude": 14.426457,
        "latitude": 50.072213,
        "car_capacity": 15,
        "description": ""
    },
    {
        "name": "Ke Karlovu",
        "longitude": 14.427116,
        "latitude": 50.072454,
        "car_capacity": 15,
        "description": ""
    },
    {
        "name": "K+R",
        "longitude": 14.342287,
        "latitude": 50.075453,
        "car_capacity": 1,
        "description": ""
    },
    {
        "name": "Venkovní parkoviště Ikea",
        "longitude": 14.588118,
        "latitude": 50.104457,
        "car_capacity": 31,
        "description": ""
    },
    {
        "name": "Průběžná",
        "longitude": 14.439947,
        "latitude": 50.167801,
        "car_capacity": 2,
        "description": ""
    },
    {
        "name": "Ve svahu",
        "longitude": 14.4211526,
        "latitude": 50.0601271,
        "car_capacity": 3,
        "description": ""
    },
    {
        "name": "Ondříčkova",
        "longitude": 14.451618,
        "latitude": 50.080554,
        "car_capacity": 2,
        "description": ""
    },
    {
        "name": "U kovárny",
        "longitude": 14.409928,
        "latitude": 50.175721,
        "car_capacity": 3,
        "description": ""
    },
    {
        "name": "Waltrovka Mechanica parkování",
        "longitude": 14.372552,
        "latitude": 50.056085,
        "car_capacity": 336,
        "description": ""
    },
    {
        "name": "Průběžná",
        "longitude": 14.438537,
        "latitude": 50.167818,
        "car_capacity": 4,
        "description": ""
    },
    {
        "name": "Chlumecká",
        "longitude": 14.586569,
        "latitude": 50.10421,
        "car_capacity": 500,
        "description": ""
    },
    {
        "name": "Karlovotýnská",
        "longitude": 14.232036,
        "latitude": 50.032392,
        "car_capacity": 6,
        "description": ""
    },
    {
        "name": "Rosmarin",
        "longitude": 14.445312,
        "latitude": 50.102556,
        "car_capacity": 370,
        "description": ""
    },
    {
        "name": "Vestecká",
        "longitude": 14.507461,
        "latitude": 49.980654,
        "car_capacity": 7,
        "description": ""
    },
    {
        "name": "U Ovčína",
        "longitude": 14.242462,
        "latitude": 50.070821,
        "car_capacity": 3,
        "description": ""
    },
    {
        "name": "Dvouletky",
        "longitude": 14.498205,
        "latitude": 50.075582,
        "car_capacity": 2,
        "description": ""
    },
    {
        "name": "Pražská",
        "longitude": 14.738102,
        "latitude": 50.132534,
        "car_capacity": 5,
        "description": ""
    },
    {
        "name": "K+R",
        "longitude": 14.653202,
        "latitude": 50.077579,
        "car_capacity": 3,
        "description": ""
    },
    {
        "name": "Hovorčovická",
        "longitude": 14.444192,
        "latitude": 50.128341,
        "car_capacity": 18,
        "description": ""
    },
    {
        "name": "Podzemní parkoviště Penny Ládví",
        "longitude": 14.470239,
        "latitude": 50.127934,
        "car_capacity": 80,
        "description": ""
    },
    {
        "name": "Čentická",
        "longitude": 14.659559,
        "latitude": 50.078096,
        "car_capacity": 4,
        "description": ""
    },
    {
        "name": "Papírníkova",
        "longitude": 14.453557,
        "latitude": 50.006977,
        "car_capacity": 28,
        "description": ""
    },
    {
        "name": "Vysočanská",
        "longitude": 14.486963547058822,
        "latitude": 50.12688519411764,
        "car_capacity": 120,
        "description": ""
    },
    {
        "name": "Maškova",
        "longitude": 14.45084506,
        "latitude": 50.13286795333334,
        "car_capacity": 80,
        "description": ""
    },
    {
        "name": "Garáže Prašný Most",
        "longitude": 14.3946285,
        "latitude": 50.09447,
        "car_capacity": 340,
        "description": ""
    },
    {
        "name": "Podzemní parkoviště Galerie Butovice",
        "longitude": 14.354176666666667,
        "latitude": 50.047722333333326,
        "car_capacity": 300,
        "description": ""
    },
    {
        "name": "parkoviště Galerie Harfa",
        "longitude": 14.491811499999999,
        "latitude": 50.1045318125,
        "car_capacity": 1071,
        "description": ""
    },
    {
        "name": "Parkoviště OD Kotva",
        "longitude": 14.4274275,
        "latitude": 50.0886845,
        "car_capacity": 360,
        "description": ""
    },
    {
        "name": "Garáže Palladium",
        "longitude": 14.4281245,
        "latitude": 50.089478,
        "car_capacity": 700,
        "description": ""
    },
    {
        "name": "Garáže Letná",
        "longitude": 14.4165325,
        "latitude": 50.09862,
        "car_capacity": 800,
        "description": ""
    },
    {
        "name": "Garáže Pařížská",
        "longitude": 14.418927499999999,
        "latitude": 50.091307,
        "car_capacity": 165,
        "description": ""
    },
    {
        "name": "NC Eden",
        "longitude": 14.468731548387096,
        "latitude": 50.06753251612903,
        "car_capacity": 963,
        "description": ""
    },
    {
        "name": "Zásobování Harfa",
        "longitude": 14.49614835,
        "latitude": 50.10301965,
        "car_capacity": 100,
        "description": ""
    },
    {
        "name": "OC Štěrboholy",
        "longitude": 14.542127,
        "latitude": 50.072185999999995,
        "car_capacity": 700,
        "description": ""
    },
    {
        "name": "Garáže Dejvice",
        "longitude": 14.391,
        "latitude": 50.1042,
        "car_capacity": 295,
        "description": ""
    },
    {
        "name": "Budínova",
        "longitude": 14.466473204347825,
        "latitude": 50.116215391304344,
        "car_capacity": 66,
        "description": ""
    },
    {
        "name": "P1 Express",
        "longitude": 14.26847772105263,
        "latitude": 50.10710918421052,
        "car_capacity": 134,
        "description": ""
    },
    {
        "name": "PB Economy",
        "longitude": 14.269258875,
        "latitude": 50.105579981249996,
        "car_capacity": 70,
        "description": ""
    },
    {
        "name": "Parkoviště 11",
        "longitude": 14.287350403225807,
        "latitude": 50.0993646483871,
        "car_capacity": 88,
        "description": ""
    },
    {
        "name": "Fajtlova",
        "longitude": 14.290898931428568,
        "latitude": 50.09315572571428,
        "car_capacity": 688,
        "description": ""
    },
    {
        "name": "U Vlachovky",
        "longitude": 14.453037,
        "latitude": 50.12146675714286,
        "car_capacity": 56,
        "description": ""
    },
    {
        "name": "nám. Svobody",
        "longitude": 14.71688408,
        "latitude": 50.07495522000001,
        "car_capacity": 54,
        "description": ""
    },
    {
        "name": "Na Zatlance",
        "longitude": 14.398940668292681,
        "latitude": 50.06869219999999,
        "car_capacity": 80,
        "description": ""
    },
    {
        "name": "Parking",
        "longitude": 14.583049536170217,
        "latitude": 50.10847396808509,
        "car_capacity": 700,
        "description": ""
    },
    {
        "name": "Globus",
        "longitude": 14.507710582352942,
        "latitude": 50.15092267058823,
        "car_capacity": 769,
        "description": ""
    },
    {
        "name": "J. Zeyera",
        "longitude": 14.744276366666664,
        "latitude": 50.159473255555554,
        "car_capacity": 13,
        "description": ""
    },
    {
        "name": "J. Zeyera",
        "longitude": 14.745046616666668,
        "latitude": 50.15901253333333,
        "car_capacity": 8,
        "description": ""
    },
    {
        "name": "Ledčická",
        "longitude": 14.451593804000003,
        "latitude": 50.136217668,
        "car_capacity": 190,
        "description": ""
    },
    {
        "name": "Kamýcká",
        "longitude": 14.373403314285714,
        "latitude": 50.13023242857143,
        "car_capacity": 18,
        "description": ""
    },
    {
        "name": "Snopkova",
        "longitude": 14.433691194444444,
        "latitude": 50.017017616666664,
        "car_capacity": 75,
        "description": ""
    },
    {
        "name": "Vazovova",
        "longitude": 14.43532492857143,
        "latitude": 50.005499542857144,
        "car_capacity": 120,
        "description": ""
    },
    {
        "name": "Parkování Rezidence Eliška Placené",
        "longitude": 14.501530111111114,
        "latitude": 50.10512244444445,
        "car_capacity": 34,
        "description": ""
    },
    {
        "name": "Venkovní parkování Rezidence Eliška",
        "longitude": 14.500113166666665,
        "latitude": 50.105986,
        "car_capacity": 71,
        "description": ""
    },
    {
        "name": "Ocelářská",
        "longitude": 14.498873578571429,
        "latitude": 50.106225528571436,
        "car_capacity": 24,
        "description": ""
    },
    {
        "name": "Zoo – hlavní vchod (pod zámkem)",
        "longitude": 14.41152454,
        "latitude": 50.11458617333333,
        "car_capacity": 130,
        "description": ""
    },
    {
        "name": "Ládví (P+R)",
        "longitude": 14.472132299999998,
        "latitude": 50.12616196666667,
        "car_capacity": 78,
        "description": ""
    },
    {
        "name": "Povltavská",
        "longitude": 14.417018100000002,
        "latitude": 50.11549982,
        "car_capacity": 6,
        "description": ""
    },
    {
        "name": "Sazečská",
        "longitude": 14.518937316666667,
        "latitude": 50.083436674999994,
        "car_capacity": 70,
        "description": ""
    },
    {
        "name": "V korytech",
        "longitude": 14.493356687755103,
        "latitude": 50.06429183265306,
        "car_capacity": 87,
        "description": ""
    },
    {
        "name": "K Ládví",
        "longitude": 14.434947619999999,
        "latitude": 50.13595574,
        "car_capacity": 30,
        "description": ""
    },
    {
        "name": "Skalka Ⅰ (P+R)",
        "longitude": 14.507562037500001,
        "latitude": 50.06958401250001,
        "car_capacity": 103,
        "description": ""
    },
    {
        "name": "parkoviště hřbitov",
        "longitude": 14.409761150000001,
        "latitude": 50.00416396666666,
        "car_capacity": 5,
        "description": ""
    },
    {
        "name": "Choteč",
        "longitude": 14.286397955555556,
        "latitude": 49.985343655555546,
        "car_capacity": 25,
        "description": ""
    },
    {
        "name": "Parkoviště Penny Market",
        "longitude": 14.6110298,
        "latitude": 50.030889789999996,
        "car_capacity": 100,
        "description": ""
    },
    {
        "name": "Mladoboleslavská",
        "longitude": 14.541710688888887,
        "latitude": 50.129176449999996,
        "car_capacity": 92,
        "description": ""
    },
    {
        "name": "Klokočná",
        "longitude": 14.719663700000002,
        "latitude": 49.959045075,
        "car_capacity": 14,
        "description": ""
    },
    {
        "name": "Parkoviště Nový Smíchov",
        "longitude": 14.401958555555556,
        "latitude": 50.07324377777777,
        "car_capacity": 2500,
        "description": ""
    },
    {
        "name": "Kolovratská",
        "longitude": 14.648811666666665,
        "latitude": 49.99725758333333,
        "car_capacity": 17,
        "description": ""
    },
    {
        "name": "Tomíčkova",
        "longitude": 14.478175240000008,
        "latitude": 50.03899384625004,
        "car_capacity": 300,
        "description": ""
    },
    {
        "name": "Chemická",
        "longitude": 14.498344280000001,
        "latitude": 50.01967238,
        "car_capacity": 30,
        "description": ""
    },
    {
        "name": "Mírového hnutí",
        "longitude": 14.501774531284921,
        "latitude": 50.03840905754187,
        "car_capacity": 223,
        "description": ""
    },
    {
        "name": "Nad Konvářkou",
        "longitude": 14.39534358333333,
        "latitude": 50.054308166666665,
        "car_capacity": 4,
        "description": ""
    },
    {
        "name": "O2 Parkovací dům",
        "longitude": 14.4973485,
        "latitude": 50.103380249999994,
        "car_capacity": 1432,
        "description": ""
    },
    {
        "name": "Masarykova",
        "longitude": 14.231988537500001,
        "latitude": 50.0340915,
        "car_capacity": 19,
        "description": ""
    },
    {
        "name": "Za elektrárnou",
        "longitude": 14.4317889,
        "latitude": 50.10874989,
        "car_capacity": 20,
        "description": ""
    },
    {
        "name": "Volutová",
        "longitude": 14.339425407142857,
        "latitude": 50.05058294285715,
        "car_capacity": 140,
        "description": ""
    },
    {
        "name": "Běhounkova",
        "longitude": 14.343290820000002,
        "latitude": 50.054281610000004,
        "car_capacity": 24,
        "description": ""
    },
    {
        "name": "Hviezdoslavova",
        "longitude": 14.530852399999997,
        "latitude": 50.03483188,
        "car_capacity": 10,
        "description": ""
    },
    {
        "name": "Pražský okruh",
        "longitude": 14.277285893333335,
        "latitude": 50.05197367999999,
        "car_capacity": 54,
        "description": ""
    },
    {
        "name": "Parking",
        "longitude": 14.288019785526316,
        "latitude": 50.05276170657896,
        "car_capacity": 1812,
        "description": ""
    },
    {
        "name": "Hornbach",
        "longitude": 14.30892257142857,
        "latitude": 50.075404757142856,
        "car_capacity": 274,
        "description": ""
    },
    {
        "name": "P8 - RESERVED",
        "longitude": 14.273797521311474,
        "latitude": 50.105900634426234,
        "car_capacity": 3709,
        "description": ""
    },
    {
        "name": "Aviatická",
        "longitude": 14.273492263157895,
        "latitude": 50.1077638263158,
        "car_capacity": 101,
        "description": ""
    },
    {
        "name": "K Jezeru",
        "longitude": 14.529053390909091,
        "latitude": 50.04101388181818,
        "car_capacity": 150,
        "description": ""
    },
    {
        "name": "Zelenohorská",
        "longitude": 14.414729399999999,
        "latitude": 50.13103812727274,
        "car_capacity": 46,
        "description": ""
    },
    {
        "name": "Lodžská",
        "longitude": 14.419819553333333,
        "latitude": 50.13070546666666,
        "car_capacity": 80,
        "description": ""
    },
    {
        "name": "Anežky Malé",
        "longitude": 14.52702674565217,
        "latitude": 50.032254552173924,
        "car_capacity": 120,
        "description": ""
    },
    {
        "name": "Letňany",
        "longitude": 14.514521577272728,
        "latitude": 50.12556575909091,
        "car_capacity": 443,
        "description": ""
    },
    {
        "name": "F",
        "longitude": 14.500369407142857,
        "latitude": 50.137517178571436,
        "car_capacity": 375,
        "description": ""
    },
    {
        "name": "E",
        "longitude": 14.499305211538463,
        "latitude": 50.13749181153847,
        "car_capacity": 195,
        "description": ""
    },
    {
        "name": "Tupolevova",
        "longitude": 14.504706088235293,
        "latitude": 50.13480125882353,
        "car_capacity": 60,
        "description": ""
    },
    {
        "name": "Lečkova",
        "longitude": 14.512979915789476,
        "latitude": 50.02729685526315,
        "car_capacity": 30,
        "description": ""
    },
    {
        "name": "Parkoviště Ledvinova",
        "longitude": 14.500810199999998,
        "latitude": 50.033328476923074,
        "car_capacity": 200,
        "description": ""
    },
    {
        "name": "Parking Celnice",
        "longitude": 14.43101,
        "latitude": 50.088195,
        "car_capacity": 460,
        "description": ""
    },
    {
        "name": "Opatovská",
        "longitude": 14.533281861224495,
        "latitude": 50.03089986530612,
        "car_capacity": 100,
        "description": ""
    },
    {
        "name": "Moravanská",
        "longitude": 14.586112255555555,
        "latitude": 50.14907575555556,
        "car_capacity": 70,
        "description": ""
    },
    {
        "name": "Golčova",
        "longitude": 14.482398521428573,
        "latitude": 50.01291954285714,
        "car_capacity": 120,
        "description": ""
    },
    {
        "name": "Sodomkova",
        "longitude": 14.531190667088605,
        "latitude": 50.06063256329112,
        "car_capacity": 20,
        "description": ""
    },
    {
        "name": "Parkoviště Lidl, Hornoměcholupská",
        "longitude": 14.546193439622643,
        "latitude": 50.047018815094326,
        "car_capacity": 131,
        "description": ""
    },
    {
        "name": "Parkoviště Kaufland",
        "longitude": 14.568403173170728,
        "latitude": 50.044095636585354,
        "car_capacity": 233,
        "description": ""
    },
    {
        "name": "Parkoviště Milánská",
        "longitude": 14.552525944444445,
        "latitude": 50.040820266666664,
        "car_capacity": 100,
        "description": ""
    },
    {
        "name": "Edisonova",
        "longitude": 14.552095755555554,
        "latitude": 50.0353058111111,
        "car_capacity": 40,
        "description": ""
    },
    {
        "name": "Parkoviště",
        "longitude": 14.484234727272728,
        "latitude": 50.0332022,
        "car_capacity": 277,
        "description": ""
    },
    {
        "name": "Šustova",
        "longitude": 14.489759760000002,
        "latitude": 50.02749068,
        "car_capacity": 100,
        "description": ""
    },
    {
        "name": "Dobronická",
        "longitude": 14.47014695,
        "latitude": 50.00934337999999,
        "car_capacity": 42,
        "description": ""
    },
    {
        "name": "Pšenčíkova",
        "longitude": 14.444926739999996,
        "latitude": 50.01343138,
        "car_capacity": 30,
        "description": ""
    },
    {
        "name": "parkoviště OC Stromovka",
        "longitude": 14.430673500000001,
        "latitude": 50.1021275,
        "car_capacity": 500,
        "description": ""
    },
    {
        "name": "Kutilova",
        "longitude": 14.422008299999998,
        "latitude": 50.01279744,
        "car_capacity": 35,
        "description": ""
    },
    {
        "name": "Prakoviště Křižíkova 44",
        "longitude": 14.453078,
        "latitude": 50.092831,
        "car_capacity": 115,
        "description": ""
    },
    {
        "name": "Garáž Limuzská",
        "longitude": 14.507739,
        "latitude": 50.083599,
        "car_capacity": 244,
        "description": ""
    },
    {
        "name": "Bělinského",
        "longitude": 14.547102041176469,
        "latitude": 50.05322429999999,
        "car_capacity": 400,
        "description": ""
    },
    {
        "name": "Parkovací dům Opatovská",
        "longitude": 14.5330362,
        "latitude": 50.031525,
        "car_capacity": 991,
        "description": ""
    },
    {
        "name": "Hotel Hilton parking",
        "longitude": 14.440429083333333,
        "latitude": 50.09281991666666,
        "car_capacity": 344,
        "description": ""
    },
    {
        "name": "Podzemní a víceposchoďové parkoviště CČM",
        "longitude": 14.58606360526316,
        "latitude": 50.108189657894734,
        "car_capacity": 1922,
        "description": ""
    },
    {
        "name": "Parking Westfield Chodov",
        "longitude": 14.489269149421622,
        "latitude": 50.03002250792937,
        "car_capacity": 4827,
        "description": ""
    },
    {
        "name": "Aviatica parking",
        "longitude": 14.374528000000002,
        "latitude": 50.056481000000005,
        "car_capacity": 461,
        "description": ""
    },
    {
        "name": "Comfort hotel parking",
        "longitude": 14.493057842857143,
        "latitude": 50.0759079,
        "car_capacity": 71,
        "description": ""
    },
    {
        "name": "Švehlova",
        "longitude": 14.512575690909092,
        "latitude": 50.05778392424242,
        "car_capacity": 50,
        "description": ""
    },
    {
        "name": "Mr. Parkit Senovážné náměstí",
        "longitude": 14.43131515,
        "latitude": 50.08605975,
        "car_capacity": 22,
        "description": ""
    },
    {
        "name": "Mr. Parkit Vítězná 420",
        "longitude": 14.40497542857143,
        "latitude": 50.081628428571435,
        "car_capacity": 25,
        "description": ""
    },
    {
        "name": "EUC Klinika parking",
        "longitude": 14.400892142857142,
        "latitude": 50.073694571428575,
        "car_capacity": 80,
        "description": ""
    },
    {
        "name": "Mr. Parkit Plzeňská 19",
        "longitude": 14.3979821,
        "latitude": 50.071762,
        "car_capacity": 31,
        "description": ""
    },
    {
        "name": "Anděl City",
        "longitude": 14.402480181818184,
        "latitude": 50.070838545454535,
        "car_capacity": 285,
        "description": ""
    },
    {
        "name": "Parkoviště Zlatý Anděl",
        "longitude": 14.403722,
        "latitude": 50.0703755,
        "car_capacity": 162,
        "description": ""
    },
    {
        "name": "Mr. Parkit Novodvorská",
        "longitude": 14.4295581875,
        "latitude": 50.0271386625,
        "car_capacity": 50,
        "description": ""
    },
    {
        "name": "Halové garáže Kaufland",
        "longitude": 14.418167749999999,
        "latitude": 50.01319685,
        "car_capacity": 227,
        "description": ""
    },
    {
        "name": "Fashion Arena parkoviště",
        "longitude": 14.540012369573612,
        "latitude": 50.07559022295122,
        "car_capacity": 1047,
        "description": ""
    },
    {
        "name": "Hlídané parkoviště Pešlova",
        "longitude": 14.498521636363636,
        "latitude": 50.111726090909094,
        "car_capacity": 170,
        "description": ""
    },
    {
        "name": "Parkovací dům P+R Nové Butovice",
        "longitude": 14.350048041666666,
        "latitude": 50.05216400000001,
        "car_capacity": 200,
        "description": ""
    },
    {
        "name": "podzemní parkoviště Kaufland Čestlice",
        "longitude": 14.56916,
        "latitude": 50.00845940000001,
        "car_capacity": 138,
        "description": ""
    },
    {
        "name": "parkovací dům Parkhous",
        "longitude": 14.465031111111111,
        "latitude": 50.06607122222223,
        "car_capacity": 360,
        "description": ""
    },
    {
        "name": "Medos parking Vinohradská",
        "longitude": 14.47101516666667,
        "latitude": 50.078609366666655,
        "car_capacity": 283,
        "description": ""
    },
    {
        "name": "Tower Park - Mahlerovy sady",
        "longitude": 14.450639857142857,
        "latitude": 50.08118428571429,
        "car_capacity": 100,
        "description": ""
    },
    {
        "name": "Parkoviště PD HOLIDAY - AeroParking",
        "longitude": 14.275657181818184,
        "latitude": 50.108236818181815,
        "car_capacity": 99,
        "description": ""
    },
    {
        "name": "P+R Letňany",
        "longitude": 14.514527499999998,
        "latitude": 50.12556590909091,
        "car_capacity": 1122,
        "description": ""
    },
    {
        "name": "Kryté parkoviště Kaufland",
        "longitude": 14.418139666666663,
        "latitude": 50.013400999999995,
        "car_capacity": 227,
        "description": ""
    },
    {
        "name": "Hlídané parkoviště Boháčová",
        "longitude": 14.520026368421057,
        "latitude": 50.03814152631579,
        "car_capacity": 120,
        "description": ""
    },
    {
        "name": "POP Airport",
        "longitude": 14.2812244,
        "latitude": 50.1260812,
        "car_capacity": 1500,
        "description": ""
    },
    {
        "name": "OC Bořislavka parking",
        "longitude": 14.366009812500003,
        "latitude": 50.0981615,
        "car_capacity": 580,
        "description": ""
    },
    {
        "name": "MR. PARKIT Španělská",
        "longitude": 14.43551205,
        "latitude": 50.08019241666667,
        "car_capacity": 68,
        "description": ""
    },
    {
        "name": "Central Parking Prague Karlovo Náměstí",
        "longitude": 14.418698666666664,
        "latitude": 50.07660666666666,
        "car_capacity": 6,
        "description": ""
    },
    {
        "name": "PGS Garáže Vinohradská",
        "longitude": 14.436961333333334,
        "latitude": 50.077442999999995,
        "car_capacity": 11,
        "description": ""
    },
    {
        "name": "Podzemní garáže OC Letňany",
        "longitude": 14.501944,
        "latitude": 50.1386666,
        "car_capacity": 1200,
        "description": ""
    },
    {
        "name": "Garáže U Jezevčíka",
        "longitude": 14.421146363636364,
        "latitude": 50.13065327272727,
        "car_capacity": 150,
        "description": ""
    },
    {
        "name": "Kryté parkoviště Konferenční centrum City",
        "longitude": 14.439294115384618,
        "latitude": 50.048798692307706,
        "car_capacity": 240,
        "description": ""
    },
    {
        "name": "AquaPalace parkoviště P2",
        "longitude": 14.572963999999999,
        "latitude": 50.007529062500005,
        "car_capacity": 300,
        "description": ""
    },
    {
        "name": "Garáže Pražského Povstání",
        "longitude": 14.431301142857142,
        "latitude": 50.055981714285714,
        "car_capacity": 242,
        "description": ""
    },
    {
        "name": "OC Šestka parkování",
        "longitude": 14.290898914285712,
        "latitude": 50.093155628571424,
        "car_capacity": 1376,
        "description": ""
    },
    {
        "name": "Arkády Pankrác parkoviště",
        "longitude": 14.43798142857143,
        "latitude": 50.051030000000004,
        "car_capacity": 1100,
        "description": ""
    },
    {
        "name": "Václavské garáže",
        "longitude": 14.4176828,
        "latitude": 50.074937999999996,
        "car_capacity": 17,
        "description": ""
    },
    {
        "name": "Bauhaus Pankrác parkování",
        "longitude": 14.442636799999999,
        "latitude": 50.0504198,
        "car_capacity": 200,
        "description": ""
    },
    {
        "name": "DBK Parkování",
        "longitude": 14.4490450625,
        "latitude": 50.04340535937498,
        "car_capacity": 530,
        "description": ""
    },
    {
        "name": "Dukelských hrdinů",
        "longitude": 14.432216259999999,
        "latitude": 50.10337588,
        "car_capacity": 3,
        "description": ""
    },
    {
        "name": "Parkoviště PC Comfort – AeroParking",
        "longitude": 14.270840743902443,
        "latitude": 50.10768725609755,
        "car_capacity": 473,
        "description": ""
    },
    {
        "name": "Atrium Flora parkování",
        "longitude": 14.460986857142856,
        "latitude": 50.079210714285715,
        "car_capacity": 766,
        "description": ""
    },
    {
        "name": "Parkovací dům Vojtíškova",
        "longitude": 14.495041833333332,
        "latitude": 50.025750499999994,
        "car_capacity": 400,
        "description": ""
    },
    {
        "name": "Makro Stodůlky",
        "longitude": 14.315078,
        "latitude": 50.040954,
        "car_capacity": 360,
        "description": ""
    },
    {
        "name": "Kaufland Palmovka",
        "longitude": 14.4683497,
        "latitude": 50.10201300000001,
        "car_capacity": 250,
        "description": ""
    },
    {
        "name": "Parkoviště Prague Congress Centre",
        "longitude": 14.427767666666666,
        "latitude": 50.061227,
        "car_capacity": 260,
        "description": ""
    },
    {
        "name": "Garáže Muzeum",
        "longitude": 14.433431727272726,
        "latitude": 50.08094504545456,
        "car_capacity": 468,
        "description": ""
    },
    {
        "name": "K Solné stezce",
        "longitude": 14.641412919999999,
        "latitude": 49.98692842,
        "car_capacity": 20,
        "description": ""
    },
    {
        "name": "Parkoviště Kaufland Bělohorská",
        "longitude": 14.341007771832894,
        "latitude": 50.07730761513596,
        "car_capacity": 460,
        "description": ""
    },
    {
        "name": "Centrum Krakov",
        "longitude": 14.418243000000002,
        "latitude": 50.12766457142857,
        "car_capacity": 200,
        "description": ""
    },
    {
        "name": "Golfová",
        "longitude": 14.6572922,
        "latitude": 49.98179924285714,
        "car_capacity": 24,
        "description": ""
    },
    {
        "name": "Kryté parkoviště Tesco, Rabakovská",
        "longitude": 14.511242,
        "latitude": 50.070468000000005,
        "car_capacity": 550,
        "description": ""
    },
    {
        "name": "GO Parking",
        "longitude": 14.282799388877908,
        "latitude": 50.121729184173866,
        "car_capacity": 1500,
        "description": ""
    },
    {
        "name": "Parkoviště IKEA Černý Most",
        "longitude": 14.5869352,
        "latitude": 50.104445,
        "car_capacity": 803,
        "description": ""
    },
    {
        "name": "PA SMART – AeroParking",
        "longitude": 14.270479714285717,
        "latitude": 50.10512557142857,
        "car_capacity": 920,
        "description": ""
    },
    {
        "name": "KCP Jižní terasa",
        "longitude": 14.429482224999992,
        "latitude": 50.0612513,
        "car_capacity": 83,
        "description": ""
    },
    {
        "name": "P+R Černý Most",
        "longitude": 14.578741399999998,
        "latitude": 50.10996060000001,
        "car_capacity": 906,
        "description": ""
    },
    {
        "name": "Parkovací dům Motol",
        "longitude": 14.341988454545454,
        "latitude": 50.07507375757576,
        "car_capacity": 400,
        "description": ""
    },
    {
        "name": "P+R Dolní Břežany",
        "longitude": 14.461486818181822,
        "latitude": 49.966193818181814,
        "car_capacity": 200,
        "description": ""
    },
    {
        "name": "NC Fénix",
        "longitude": 14.500663357142853,
        "latitude": 50.10939735714286,
        "car_capacity": 614,
        "description": ""
    },
    {
        "name": "Jankovcova",
        "longitude": 14.455339355555557,
        "latitude": 50.10243588888889,
        "car_capacity": 100,
        "description": ""
    },
    {
        "name": "P+R Chodov",
        "longitude": 14.491940947368425,
        "latitude": 50.03179,
        "car_capacity": 692,
        "description": ""
    },
    {
        "name": "Stará Stodůlecká",
        "longitude": 14.356748999999999,
        "latitude": 50.049693928571436,
        "car_capacity": 23,
        "description": ""
    },
    {
        "name": "Livornská",
        "longitude": 14.552857087499998,
        "latitude": 50.04178352499999,
        "car_capacity": 12,
        "description": ""
    },
    {
        "name": "Livornská",
        "longitude": 14.55375306,
        "latitude": 50.04164016,
        "car_capacity": 30,
        "description": ""
    },
    {
        "name": "Livornská",
        "longitude": 14.55515618125,
        "latitude": 50.041508443750004,
        "car_capacity": 90,
        "description": ""
    },
    {
        "name": "Kurčatovova",
        "longitude": 14.56351634137931,
        "latitude": 50.0319001,
        "car_capacity": 40,
        "description": ""
    },
    {
        "name": "Jakobiho",
        "longitude": 14.56107487857143,
        "latitude": 50.03188538928572,
        "car_capacity": 100,
        "description": ""
    },
    {
        "name": "Rezlerova",
        "longitude": 14.562995325000001,
        "latitude": 50.03517441666667,
        "car_capacity": 80,
        "description": ""
    },
    {
        "name": "Veronské nám.",
        "longitude": 14.561065325000001,
        "latitude": 50.041106775,
        "car_capacity": 20,
        "description": ""
    },
    {
        "name": "Venkovní parkoviště Ikea",
        "longitude": 14.58826961,
        "latitude": 50.10389322333332,
        "car_capacity": 31,
        "description": ""
    },
    {
        "name": "Boloňská",
        "longitude": 14.559720042857142,
        "latitude": 50.047663914285714,
        "car_capacity": 20,
        "description": ""
    },
    {
        "name": "Parkoviště Hornoměcholupská, Billa",
        "longitude": 14.554677136363637,
        "latitude": 50.04737786363637,
        "car_capacity": 88,
        "description": ""
    },
    {
        "name": "Milánská",
        "longitude": 14.555943099999999,
        "latitude": 50.046371512499995,
        "car_capacity": 12,
        "description": ""
    },
    {
        "name": "Boloňská",
        "longitude": 14.560669642105264,
        "latitude": 50.0489282368421,
        "car_capacity": 35,
        "description": ""
    },
    {
        "name": "Parkoviště Horní Měcholupy - západ",
        "longitude": 14.558046657142857,
        "latitude": 50.041614471428566,
        "car_capacity": 60,
        "description": ""
    },
    {
        "name": "Parkoviště Horní Měcholupy - západ",
        "longitude": 14.557796376923076,
        "latitude": 50.04145396153846,
        "car_capacity": 60,
        "description": ""
    },
    {
        "name": "Milánská",
        "longitude": 14.554819681249999,
        "latitude": 50.04268664375,
        "car_capacity": 150,
        "description": ""
    },
    {
        "name": "U Hájovny",
        "longitude": 14.54443211904762,
        "latitude": 49.99428477142857,
        "car_capacity": 30,
        "description": ""
    },
    {
        "name": "Liberecká",
        "longitude": 14.49194804545455,
        "latitude": 50.13214502575759,
        "car_capacity": 1000,
        "description": ""
    },
    {
        "name": "Halasova",
        "longitude": 14.441437585714283,
        "latitude": 50.042275614285714,
        "car_capacity": 8,
        "description": ""
    },
    {
        "name": "Budějovická",
        "longitude": 14.442636869999998,
        "latitude": 50.050419829999996,
        "car_capacity": 200,
        "description": ""
    },
    {
        "name": "Hradčanská",
        "longitude": 14.401900087500001,
        "latitude": 50.097460283333334,
        "car_capacity": 140,
        "description": ""
    },
    {
        "name": "parkoviště Hlavní nádraží - Terasa",
        "longitude": 14.4341439,
        "latitude": 50.0834155,
        "car_capacity": 148,
        "description": ""
    },
    {
        "name": "Lisabonská",
        "longitude": 14.496789000000001,
        "latitude": 50.103928485714285,
        "car_capacity": 10,
        "description": ""
    },
    {
        "name": "Elektrárenská",
        "longitude": 14.476212821428563,
        "latitude": 50.062684671428585,
        "car_capacity": 88,
        "description": ""
    },
    {
        "name": "U Makra",
        "longitude": 14.576117759999999,
        "latitude": 50.00546151,
        "car_capacity": 450,
        "description": ""
    },
    {
        "name": "Zálesí",
        "longitude": 14.454545947058824,
        "latitude": 50.02812169411765,
        "car_capacity": 25,
        "description": ""
    },
    {
        "name": "Nevanova",
        "longitude": 14.311607911538466,
        "latitude": 50.06457826923077,
        "car_capacity": 150,
        "description": ""
    },
    {
        "name": "Parkoviště Úřad MČ Praha 15",
        "longitude": 14.55762924,
        "latitude": 50.04741768,
        "car_capacity": 60,
        "description": ""
    },
    {
        "name": "U dubečské tvrze",
        "longitude": 14.596727557142858,
        "latitude": 50.063611357142854,
        "car_capacity": 7,
        "description": ""
    },
    {
        "name": "U dubečské tvrze",
        "longitude": 14.596446128571428,
        "latitude": 50.06351407142858,
        "car_capacity": 4,
        "description": ""
    },
    {
        "name": "Majerského",
        "longitude": 14.507288237499997,
        "latitude": 50.03983329375,
        "car_capacity": 100,
        "description": ""
    },
    {
        "name": "U Trojského zámku",
        "longitude": 14.4118160173913,
        "latitude": 50.11657212173913,
        "car_capacity": 10,
        "description": ""
    },
    {
        "name": "Radlická",
        "longitude": 14.390375180000001,
        "latitude": 50.05878626,
        "car_capacity": 150,
        "description": ""
    },
    {
        "name": "Leopoldova",
        "longitude": 14.505895314285715,
        "latitude": 50.03933504285715,
        "car_capacity": 5,
        "description": ""
    },
    {
        "name": "Leopoldova",
        "longitude": 14.506617599999998,
        "latitude": 50.03940346666667,
        "car_capacity": 10,
        "description": ""
    },
    {
        "name": "Pyšelská",
        "longitude": 14.498254022222223,
        "latitude": 50.03893041111112,
        "car_capacity": 203,
        "description": ""
    },
    {
        "name": "U lipové aleje",
        "longitude": 14.579782099999997,
        "latitude": 50.058022333333334,
        "car_capacity": 10,
        "description": ""
    },
    {
        "name": "U lipové aleje",
        "longitude": 14.579765663636362,
        "latitude": 50.05792395454546,
        "car_capacity": 12,
        "description": ""
    },
    {
        "name": "Pod Horkami",
        "longitude": 14.581053180000001,
        "latitude": 50.061212919999996,
        "car_capacity": 5,
        "description": ""
    },
    {
        "name": "Pod Horkami",
        "longitude": 14.581037,
        "latitude": 50.06110926,
        "car_capacity": 3,
        "description": ""
    },
    {
        "name": "Dubeckého",
        "longitude": 14.58230466,
        "latitude": 50.06081054,
        "car_capacity": 6,
        "description": ""
    },
    {
        "name": "Nezdova",
        "longitude": 14.582303159999999,
        "latitude": 50.060708999999996,
        "car_capacity": 8,
        "description": ""
    },
    {
        "name": "Dubeckého",
        "longitude": 14.58140696,
        "latitude": 50.06087332,
        "car_capacity": 6,
        "description": ""
    },
    {
        "name": "Martinova",
        "longitude": 14.581255780000001,
        "latitude": 50.06071156,
        "car_capacity": 5,
        "description": ""
    },
    {
        "name": "Pod Horkami",
        "longitude": 14.58093168,
        "latitude": 50.06069232,
        "car_capacity": 2,
        "description": ""
    },
    {
        "name": "Winklerova",
        "longitude": 14.59605354,
        "latitude": 50.064838380000005,
        "car_capacity": 10,
        "description": ""
    },
    {
        "name": "Winklerova",
        "longitude": 14.595930380000002,
        "latitude": 50.06480106,
        "car_capacity": 17,
        "description": ""
    },
    {
        "name": "Winklerova",
        "longitude": 14.59543576923077,
        "latitude": 50.064875353846155,
        "car_capacity": 20,
        "description": ""
    },
    {
        "name": "Ke korunce",
        "longitude": 14.594622157142856,
        "latitude": 50.06540772142857,
        "car_capacity": 10,
        "description": ""
    },
    {
        "name": "Ke korunce",
        "longitude": 14.59453536,
        "latitude": 50.065078799999995,
        "car_capacity": 13,
        "description": ""
    },
    {
        "name": "Ke korunce",
        "longitude": 14.594474459999997,
        "latitude": 50.064912320000005,
        "car_capacity": 3,
        "description": ""
    },
    {
        "name": "Ke korunce",
        "longitude": 14.594357725000002,
        "latitude": 50.06519922500001,
        "car_capacity": 15,
        "description": ""
    },
    {
        "name": "Parkoviště Kutnohorská",
        "longitude": 14.561566050000001,
        "latitude": 50.0573723,
        "car_capacity": 10,
        "description": ""
    },
    {
        "name": "Honzíkova",
        "longitude": 14.55417338,
        "latitude": 50.066806220000004,
        "car_capacity": 20,
        "description": ""
    },
    {
        "name": "Volkova",
        "longitude": 14.56693952,
        "latitude": 50.10654004,
        "car_capacity": 15,
        "description": ""
    },
    {
        "name": "Volkova",
        "longitude": 14.56698446,
        "latitude": 50.106478779999996,
        "car_capacity": 15,
        "description": ""
    },
    {
        "name": "Milešovská",
        "longitude": 14.451094490909092,
        "latitude": 50.079079681818186,
        "car_capacity": 8,
        "description": ""
    },
    {
        "name": "Výmolova",
        "longitude": 14.393878087500001,
        "latitude": 50.056560187500004,
        "car_capacity": 10,
        "description": ""
    },
    {
        "name": "Šrobárova",
        "longitude": 14.474152076923076,
        "latitude": 50.075840753846144,
        "car_capacity": 40,
        "description": ""
    },
    {
        "name": "Podolské nábřeží",
        "longitude": 14.415606105555554,
        "latitude": 50.05110603333333,
        "car_capacity": 35,
        "description": ""
    },
    {
        "name": "U polikliniky",
        "longitude": 14.41638879,
        "latitude": 50.12650104000001,
        "car_capacity": 40,
        "description": ""
    },
    {
        "name": "U Slovanky",
        "longitude": 14.465279559999999,
        "latitude": 50.12505828,
        "car_capacity": 6,
        "description": ""
    },
    {
        "name": "U Slovanky",
        "longitude": 14.465610825,
        "latitude": 50.124839075000004,
        "car_capacity": 80,
        "description": ""
    },
    {
        "name": "Staré náměstí",
        "longitude": 14.310877880000001,
        "latitude": 50.08084434,
        "car_capacity": 20,
        "description": ""
    },
    {
        "name": "Staré náměstí",
        "longitude": 14.31132098,
        "latitude": 50.08089438,
        "car_capacity": 15,
        "description": ""
    },
    {
        "name": "Ztracená",
        "longitude": 14.3076755,
        "latitude": 50.0831445875,
        "car_capacity": 12,
        "description": ""
    },
    {
        "name": "Ztracená",
        "longitude": 14.30825427142857,
        "latitude": 50.083067557142854,
        "car_capacity": 18,
        "description": ""
    },
    {
        "name": "Ztracená",
        "longitude": 14.30838756,
        "latitude": 50.08315788,
        "car_capacity": 18,
        "description": ""
    },
    {
        "name": "Ztracená",
        "longitude": 14.30853052,
        "latitude": 50.082740799999996,
        "car_capacity": 8,
        "description": ""
    },
    {
        "name": "Ztracená",
        "longitude": 14.3077585,
        "latitude": 50.082486871428564,
        "car_capacity": 28,
        "description": ""
    },
    {
        "name": "Drnovská",
        "longitude": 14.30950314,
        "latitude": 50.07888396,
        "car_capacity": 20,
        "description": ""
    },
    {
        "name": "Ústavní",
        "longitude": 14.428534157142858,
        "latitude": 50.13750354285714,
        "car_capacity": 10,
        "description": ""
    },
    {
        "name": "Na šachtě",
        "longitude": 14.436844182352942,
        "latitude": 50.105818282352935,
        "car_capacity": 98,
        "description": ""
    },
    {
        "name": "Borského",
        "longitude": 14.381731128571431,
        "latitude": 50.03379908571429,
        "car_capacity": 62,
        "description": ""
    },
    {
        "name": "Skorkovská",
        "longitude": 14.576061,
        "latitude": 50.11059075,
        "car_capacity": 25,
        "description": ""
    },
    {
        "name": "Skorkovská",
        "longitude": 14.5756797,
        "latitude": 50.1103482,
        "car_capacity": 5,
        "description": ""
    },
    {
        "name": "Skorkovská",
        "longitude": 14.576717859999999,
        "latitude": 50.10993418,
        "car_capacity": 10,
        "description": ""
    },
    {
        "name": "Skorkovská",
        "longitude": 14.576673828571428,
        "latitude": 50.11064865714286,
        "car_capacity": 6,
        "description": ""
    },
    {
        "name": "Slánská",
        "longitude": 14.308858833333334,
        "latitude": 50.07573397777778,
        "car_capacity": 115,
        "description": ""
    },
    {
        "name": "Semilská",
        "longitude": 14.546362575,
        "latitude": 50.143996175,
        "car_capacity": 11,
        "description": ""
    },
    {
        "name": "Vlašská",
        "longitude": 14.398470963636363,
        "latitude": 50.08720883636364,
        "car_capacity": 20,
        "description": ""
    },
    {
        "name": "Štorkánova",
        "longitude": 14.390700559999999,
        "latitude": 50.06122412,
        "car_capacity": 7,
        "description": ""
    },
    {
        "name": "Na bělohorské pláni",
        "longitude": 14.3208009,
        "latitude": 50.07325158,
        "car_capacity": 5,
        "description": ""
    },
    {
        "name": "Podhrázská",
        "longitude": 14.653258099999999,
        "latitude": 49.99409802,
        "car_capacity": 4,
        "description": ""
    },
    {
        "name": "Březinova",
        "longitude": 14.653744600000001,
        "latitude": 49.99543215999999,
        "car_capacity": 13,
        "description": ""
    },
    {
        "name": "Mánesova",
        "longitude": 14.661612700000001,
        "latitude": 49.99508594,
        "car_capacity": 25,
        "description": ""
    },
    {
        "name": "Mánesova",
        "longitude": 14.66247682,
        "latitude": 49.9947472,
        "car_capacity": 5,
        "description": ""
    },
    {
        "name": "Nerudova",
        "longitude": 14.663034499999998,
        "latitude": 49.994617087499996,
        "car_capacity": 20,
        "description": ""
    },
    {
        "name": "Komenského náměstí",
        "longitude": 14.663113928571429,
        "latitude": 49.991590214285715,
        "car_capacity": 8,
        "description": ""
    },
    {
        "name": "Komenského náměstí",
        "longitude": 14.663805420000003,
        "latitude": 49.99177978,
        "car_capacity": 10,
        "description": ""
    },
    {
        "name": "Komenského náměstí",
        "longitude": 14.664062542857142,
        "latitude": 49.991442271428575,
        "car_capacity": 17,
        "description": ""
    },
    {
        "name": "Blahoslavova",
        "longitude": 14.663936933333334,
        "latitude": 49.99134001666667,
        "car_capacity": 9,
        "description": ""
    },
    {
        "name": "Komenského náměstí",
        "longitude": 14.663141760000002,
        "latitude": 49.99141292,
        "car_capacity": 9,
        "description": ""
    },
    {
        "name": "U Mostu",
        "longitude": 14.668382740000002,
        "latitude": 49.991558839999996,
        "car_capacity": 8,
        "description": ""
    },
    {
        "name": "Antala Staška",
        "longitude": 14.439713739999998,
        "latitude": 50.04054952,
        "car_capacity": 5,
        "description": ""
    },
    {
        "name": "Antala Staška",
        "longitude": 14.440294316666666,
        "latitude": 50.040666050000006,
        "car_capacity": 3,
        "description": ""
    },
    {
        "name": "Libuňská",
        "longitude": 14.612762966666667,
        "latitude": 50.11633485555556,
        "car_capacity": 6,
        "description": ""
    },
    {
        "name": "Otovická",
        "longitude": 14.61309778,
        "latitude": 50.11640206,
        "car_capacity": 10,
        "description": ""
    },
    {
        "name": "Mošnova",
        "longitude": 14.38063524,
        "latitude": 50.07151106,
        "car_capacity": 4,
        "description": ""
    },
    {
        "name": "Vaníčkova",
        "longitude": 14.390242966666666,
        "latitude": 50.08260538000001,
        "car_capacity": 30,
        "description": ""
    },
    {
        "name": "Holečkova",
        "longitude": 14.3980445,
        "latitude": 50.076243733333335,
        "car_capacity": 30,
        "description": ""
    },
    {
        "name": "Hellichova",
        "longitude": 14.406408868571425,
        "latitude": 50.08391941428571,
        "car_capacity": 60,
        "description": ""
    },
    {
        "name": "Všehrdova",
        "longitude": 14.40637852692308,
        "latitude": 50.08326088846154,
        "car_capacity": 90,
        "description": ""
    },
    {
        "name": null,
        "longitude": 14.662007679999999,
        "latitude": 49.9936128,
        "car_capacity": 4,
        "description": ""
    },
    {
        "name": "Parking",
        "longitude": 14.45886748,
        "latitude": 50.114798730000004,
        "car_capacity": 22,
        "description": ""
    },
    {
        "name": "Strašínská",
        "longitude": 14.677245807692309,
        "latitude": 49.997050800000004,
        "car_capacity": 12,
        "description": ""
    },
    {
        "name": "V třešňovce",
        "longitude": 14.49943696,
        "latitude": 50.09286385,
        "car_capacity": 200,
        "description": ""
    },
    {
        "name": "Jíchova",
        "longitude": 14.568150280000001,
        "latitude": 50.10483898,
        "car_capacity": 20,
        "description": ""
    },
    {
        "name": "Breitcetlova",
        "longitude": 14.574344583333334,
        "latitude": 50.105852516666666,
        "car_capacity": 17,
        "description": ""
    },
    {
        "name": "Generála Janouška",
        "longitude": 14.570588644444443,
        "latitude": 50.10597345555556,
        "car_capacity": 80,
        "description": ""
    },
    {
        "name": "Chlumecká",
        "longitude": 14.5835838,
        "latitude": 50.10964065714285,
        "car_capacity": 15,
        "description": ""
    },
    {
        "name": "Dvořákova",
        "longitude": 14.65904624,
        "latitude": 49.98835464,
        "car_capacity": 6,
        "description": ""
    },
    {
        "name": "Masarykovo nábřeží",
        "longitude": 14.41324606923077,
        "latitude": 50.07909083076924,
        "car_capacity": 13,
        "description": ""
    },
    {
        "name": "Michelangelova",
        "longitude": 14.50997496,
        "latitude": 50.0721292,
        "car_capacity": 2,
        "description": ""
    },
    {
        "name": "Michelangelova",
        "longitude": 14.510040659999998,
        "latitude": 50.07221806,
        "car_capacity": 3,
        "description": ""
    },
    {
        "name": "Michelangelova",
        "longitude": 14.51010202,
        "latitude": 50.0723013,
        "car_capacity": 3,
        "description": ""
    },
    {
        "name": "Jesenická",
        "longitude": 14.57046756,
        "latitude": 49.978049080000005,
        "car_capacity": 24,
        "description": ""
    },
    {
        "name": "Parkoviště PENAM",
        "longitude": 14.57310248,
        "latitude": 49.968941799999996,
        "car_capacity": 50,
        "description": ""
    },
    {
        "name": "Pražská",
        "longitude": 14.70654156,
        "latitude": 50.072286999999996,
        "car_capacity": 6,
        "description": ""
    },
    {
        "name": "Pražská",
        "longitude": 14.706714999999999,
        "latitude": 50.07229941999999,
        "car_capacity": 6,
        "description": ""
    },
    {
        "name": "Pražská",
        "longitude": 14.70674918,
        "latitude": 50.07204264,
        "car_capacity": 10,
        "description": ""
    },
    {
        "name": "Pražská",
        "longitude": 14.70532806,
        "latitude": 50.07182778,
        "car_capacity": 13,
        "description": ""
    },
    {
        "name": "Pražská",
        "longitude": 14.7060542,
        "latitude": 50.07178925999999,
        "car_capacity": 25,
        "description": ""
    },
    {
        "name": "Pražská",
        "longitude": 14.706248000000002,
        "latitude": 50.07190602,
        "car_capacity": 16,
        "description": ""
    },
    {
        "name": "Pražská",
        "longitude": 14.70580056,
        "latitude": 50.071878680000005,
        "car_capacity": 7,
        "description": ""
    },
    {
        "name": "Pražská",
        "longitude": 14.706238380000002,
        "latitude": 50.071977960000005,
        "car_capacity": 15,
        "description": ""
    },
    {
        "name": "Pražská",
        "longitude": 14.70564828,
        "latitude": 50.07194262,
        "car_capacity": 13,
        "description": ""
    },
    {
        "name": "Pražská",
        "longitude": 14.706185720000002,
        "latitude": 50.07208038,
        "car_capacity": 12,
        "description": ""
    },
    {
        "name": "Pražská",
        "longitude": 14.705427599999998,
        "latitude": 50.0720348,
        "car_capacity": 22,
        "description": ""
    },
    {
        "name": "Toužimská",
        "longitude": 14.549791938461539,
        "latitude": 50.13490909230768,
        "car_capacity": 26,
        "description": ""
    },
    {
        "name": "Dolákova",
        "longitude": 14.403625421428572,
        "latitude": 50.133371492857144,
        "car_capacity": 30,
        "description": ""
    },
    {
        "name": "U Hřbitova",
        "longitude": 14.47811528,
        "latitude": 49.960553280000006,
        "car_capacity": 6,
        "description": ""
    },
    {
        "name": "Platónova",
        "longitude": 14.421387379999999,
        "latitude": 49.9997524,
        "car_capacity": 30,
        "description": ""
    },
    {
        "name": "Platónova",
        "longitude": 14.42012254,
        "latitude": 49.99953018,
        "car_capacity": 30,
        "description": ""
    },
    {
        "name": "Platónova",
        "longitude": 14.41908884285714,
        "latitude": 49.99930238571428,
        "car_capacity": 12,
        "description": ""
    },
    {
        "name": "Semická",
        "longitude": 14.41838022631579,
        "latitude": 49.99804466842105,
        "car_capacity": 15,
        "description": ""
    },
    {
        "name": "Semická",
        "longitude": 14.418688159999999,
        "latitude": 49.998130100000004,
        "car_capacity": 6,
        "description": ""
    },
    {
        "name": "Semická",
        "longitude": 14.41870836,
        "latitude": 49.99802880000001,
        "car_capacity": 5,
        "description": ""
    },
    {
        "name": "Semická",
        "longitude": 14.418128757142856,
        "latitude": 49.99829241428571,
        "car_capacity": 4,
        "description": ""
    },
    {
        "name": "Semická",
        "longitude": 14.41799902,
        "latitude": 49.99846864,
        "car_capacity": 3,
        "description": ""
    },
    {
        "name": "Petržílova",
        "longitude": 14.421480560000001,
        "latitude": 49.998773119999996,
        "car_capacity": 55,
        "description": ""
    },
    {
        "name": "Petržílova",
        "longitude": 14.4231313,
        "latitude": 49.99925906,
        "car_capacity": 24,
        "description": ""
    },
    {
        "name": "Petržílova",
        "longitude": 14.42408418,
        "latitude": 49.99950486,
        "car_capacity": 20,
        "description": ""
    },
    {
        "name": "Pertoldova",
        "longitude": 14.42543114,
        "latitude": 50.0002335,
        "car_capacity": 20,
        "description": ""
    },
    {
        "name": "Pertoldova",
        "longitude": 14.4265939,
        "latitude": 50.00049127142857,
        "car_capacity": 25,
        "description": ""
    },
    {
        "name": "Fišerova",
        "longitude": 14.42573142,
        "latitude": 50.00079554,
        "car_capacity": 20,
        "description": ""
    },
    {
        "name": "Daňkova",
        "longitude": 14.42711762,
        "latitude": 50.00111502,
        "car_capacity": 20,
        "description": ""
    },
    {
        "name": "Pertoldova",
        "longitude": 14.42813464,
        "latitude": 50.00077598,
        "car_capacity": 20,
        "description": ""
    },
    {
        "name": "Vokrojova",
        "longitude": 14.428553579999999,
        "latitude": 50.001251280000005,
        "car_capacity": 20,
        "description": ""
    },
    {
        "name": "Vokrojova",
        "longitude": 14.42872518,
        "latitude": 50.001308939999994,
        "car_capacity": 12,
        "description": ""
    },
    {
        "name": "Vokrojova",
        "longitude": 14.42864346,
        "latitude": 50.00166242,
        "car_capacity": 14,
        "description": ""
    },
    {
        "name": "Borovanská",
        "longitude": 14.42918688,
        "latitude": 50.00065678,
        "car_capacity": 20,
        "description": ""
    },
    {
        "name": "Pertoldova",
        "longitude": 14.429809,
        "latitude": 50.00106426,
        "car_capacity": 20,
        "description": ""
    },
    {
        "name": "Pertoldova",
        "longitude": 14.430660885714287,
        "latitude": 50.00113497142856,
        "car_capacity": 15,
        "description": ""
    },
    {
        "name": "Pertoldova",
        "longitude": 14.4312207,
        "latitude": 50.0017309,
        "car_capacity": 12,
        "description": ""
    },
    {
        "name": "Urbánkova",
        "longitude": 14.43117332,
        "latitude": 50.00193528,
        "car_capacity": 4,
        "description": ""
    },
    {
        "name": "Urbánkova",
        "longitude": 14.4306069,
        "latitude": 50.00213670000001,
        "car_capacity": 15,
        "description": ""
    },
    {
        "name": "Urbánkova",
        "longitude": 14.429333499999998,
        "latitude": 50.00213393999999,
        "car_capacity": 25,
        "description": ""
    },
    {
        "name": "Urbánkova",
        "longitude": 14.428317799999999,
        "latitude": 50.00225876,
        "car_capacity": 15,
        "description": ""
    },
    {
        "name": "Urbánkova",
        "longitude": 14.428134779999999,
        "latitude": 50.002161820000005,
        "car_capacity": 8,
        "description": ""
    },
    {
        "name": "Urbánkova",
        "longitude": 14.427658355555552,
        "latitude": 50.00217564444444,
        "car_capacity": 16,
        "description": ""
    },
    {
        "name": "Urbánkova",
        "longitude": 14.42698662,
        "latitude": 50.00212424,
        "car_capacity": 15,
        "description": ""
    },
    {
        "name": "Semická",
        "longitude": 14.419055700000001,
        "latitude": 49.99836844,
        "car_capacity": 10,
        "description": ""
    },
    {
        "name": "Petržílova",
        "longitude": 14.42027712,
        "latitude": 49.99892208,
        "car_capacity": 6,
        "description": ""
    },
    {
        "name": "Urbánkova",
        "longitude": 14.429131620000001,
        "latitude": 50.002090839999994,
        "car_capacity": 25,
        "description": ""
    },
    {
        "name": "Pražská",
        "longitude": 14.74194583,
        "latitude": 49.98967734,
        "car_capacity": 21,
        "description": ""
    },
    {
        "name": "Štěpařská",
        "longitude": 14.375855614285713,
        "latitude": 50.02972111428572,
        "car_capacity": 17,
        "description": ""
    },
    {
        "name": "Schwaigerova",
        "longitude": 14.4086369,
        "latitude": 50.10301312,
        "car_capacity": 1,
        "description": ""
    },
    {
        "name": "Perlitová",
        "longitude": 14.436163268421048,
        "latitude": 50.04333743684211,
        "car_capacity": 80,
        "description": ""
    },
    {
        "name": "Podolská",
        "longitude": 14.41418942,
        "latitude": 50.04634168,
        "car_capacity": 99,
        "description": ""
    },
    {
        "name": "náměstí Osvoboditelů",
        "longitude": 14.360563614285715,
        "latitude": 49.984714,
        "car_capacity": 22,
        "description": ""
    },
    {
        "name": "Štolcova",
        "longitude": 14.416002957142855,
        "latitude": 49.99175007142857,
        "car_capacity": 5,
        "description": ""
    },
    {
        "name": "Na Šabatce",
        "longitude": 14.408311409090908,
        "latitude": 49.98893000909091,
        "car_capacity": 80,
        "description": ""
    },
    {
        "name": "Písková",
        "longitude": 14.413344450000002,
        "latitude": 50.002115866666664,
        "car_capacity": 46,
        "description": ""
    },
    {
        "name": "Tomická",
        "longitude": 14.503444383333331,
        "latitude": 50.069795416666665,
        "car_capacity": 2,
        "description": ""
    },
    {
        "name": "Pod Strání",
        "longitude": 14.50272641,
        "latitude": 50.069599450000005,
        "car_capacity": 7,
        "description": ""
    },
    {
        "name": "Pod strání",
        "longitude": 14.504325337500001,
        "latitude": 50.0697354875,
        "car_capacity": 8,
        "description": ""
    },
    {
        "name": "Vídeňská",
        "longitude": 14.482688079999999,
        "latitude": 50.001158200000006,
        "car_capacity": 20,
        "description": ""
    },
    {
        "name": "Strnadových",
        "longitude": 14.515677219999997,
        "latitude": 50.11266078,
        "car_capacity": 8,
        "description": ""
    },
    {
        "name": "Kostelecká",
        "longitude": 14.504023747368421,
        "latitude": 50.148905889473674,
        "car_capacity": 38,
        "description": ""
    },
    {
        "name": "Kostelecká",
        "longitude": 14.503569322222225,
        "latitude": 50.14861806666667,
        "car_capacity": 17,
        "description": ""
    },
    {
        "name": "U hráze",
        "longitude": 14.48636436,
        "latitude": 50.06995688,
        "car_capacity": 3,
        "description": ""
    },
    {
        "name": "Na hroudě",
        "longitude": 14.48657634,
        "latitude": 50.070041780000004,
        "car_capacity": 9,
        "description": ""
    },
    {
        "name": "U hráze",
        "longitude": 14.486266080000002,
        "latitude": 50.07003944,
        "car_capacity": 2,
        "description": ""
    },
    {
        "name": "Za Křížem",
        "longitude": 14.567792460000001,
        "latitude": 50.05201414,
        "car_capacity": 30,
        "description": ""
    },
    {
        "name": "Českobrodská",
        "longitude": 14.551024708333332,
        "latitude": 50.08937838333333,
        "car_capacity": 10,
        "description": ""
    },
    {
        "name": "U pejřárny",
        "longitude": 14.45993968888889,
        "latitude": 50.01183634444445,
        "car_capacity": 15,
        "description": ""
    },
    {
        "name": "Sokolovská",
        "longitude": 14.742152823809525,
        "latitude": 50.15653355238094,
        "car_capacity": 116,
        "description": ""
    },
    {
        "name": "Barákova",
        "longitude": 14.65892806,
        "latitude": 49.99827318,
        "car_capacity": 5,
        "description": ""
    },
    {
        "name": "Herlíkovická",
        "longitude": 14.548387297058822,
        "latitude": 50.13927449117648,
        "car_capacity": 18,
        "description": ""
    },
    {
        "name": "Parking",
        "longitude": 14.402787660000001,
        "latitude": 50.027415739999995,
        "car_capacity": 10,
        "description": ""
    },
    {
        "name": "Parking",
        "longitude": 14.4027993,
        "latitude": 50.027175025000005,
        "car_capacity": 3,
        "description": ""
    },
    {
        "name": "Pod Haltýřem",
        "longitude": 14.463723400000001,
        "latitude": 50.020902783333334,
        "car_capacity": 50,
        "description": ""
    },
    {
        "name": "K Zelené louce",
        "longitude": 14.463905245454548,
        "latitude": 50.02155688181818,
        "car_capacity": 100,
        "description": ""
    },
    {
        "name": "Levského",
        "longitude": 14.429629120000001,
        "latitude": 50.008353359999994,
        "car_capacity": 8,
        "description": ""
    },
    {
        "name": "Levského",
        "longitude": 14.43053732,
        "latitude": 50.008042,
        "car_capacity": 12,
        "description": ""
    },
    {
        "name": "Levského",
        "longitude": 14.431389079999999,
        "latitude": 50.00816493999999,
        "car_capacity": 11,
        "description": ""
    },
    {
        "name": "Levského",
        "longitude": 14.4305768,
        "latitude": 50.00886734000001,
        "car_capacity": 12,
        "description": ""
    },
    {
        "name": "Levského",
        "longitude": 14.43005038,
        "latitude": 50.00879584,
        "car_capacity": 9,
        "description": ""
    },
    {
        "name": "Šumenská",
        "longitude": 14.435113480000002,
        "latitude": 50.006794,
        "car_capacity": 10,
        "description": ""
    },
    {
        "name": "Vitošská",
        "longitude": 14.431232779999998,
        "latitude": 50.0064342,
        "car_capacity": 20,
        "description": ""
    },
    {
        "name": "Vitošská",
        "longitude": 14.43071448,
        "latitude": 50.00672482,
        "car_capacity": 8,
        "description": ""
    },
    {
        "name": "Vitošská",
        "longitude": 14.43084044,
        "latitude": 50.00679336,
        "car_capacity": 5,
        "description": ""
    },
    {
        "name": "Vitošská",
        "longitude": 14.43033586,
        "latitude": 50.00697454,
        "car_capacity": 6,
        "description": ""
    },
    {
        "name": "Vitošská",
        "longitude": 14.430306300000002,
        "latitude": 50.00686252,
        "car_capacity": 15,
        "description": ""
    },
    {
        "name": "Vitošská",
        "longitude": 14.42861658,
        "latitude": 50.007148380000004,
        "car_capacity": 40,
        "description": ""
    },
    {
        "name": "Rilská",
        "longitude": 14.428704999999999,
        "latitude": 50.008175820000005,
        "car_capacity": 13,
        "description": ""
    },
    {
        "name": "Jordana Jovkova",
        "longitude": 14.423176279999998,
        "latitude": 50.00708248,
        "car_capacity": 42,
        "description": ""
    },
    {
        "name": "Nikoly Vapcarova",
        "longitude": 14.422007060000002,
        "latitude": 50.006044040000006,
        "car_capacity": 70,
        "description": ""
    },
    {
        "name": "Nikoly Vapcarova",
        "longitude": 14.42092728,
        "latitude": 50.00586919999999,
        "car_capacity": 15,
        "description": ""
    },
    {
        "name": "Jordana Jovkova",
        "longitude": 14.420229980000002,
        "latitude": 50.006090040000004,
        "car_capacity": 20,
        "description": ""
    },
    {
        "name": "Jordana Jovkova",
        "longitude": 14.420006359999999,
        "latitude": 50.006728179999996,
        "car_capacity": 20,
        "description": ""
    },
    {
        "name": "Plovdivská",
        "longitude": 14.419805640000002,
        "latitude": 50.00641829999999,
        "car_capacity": 15,
        "description": ""
    },
    {
        "name": "Jordana Jovkova",
        "longitude": 14.4198674,
        "latitude": 50.00727374285715,
        "car_capacity": 20,
        "description": ""
    },
    {
        "name": "Pejevové",
        "longitude": 14.421826140000002,
        "latitude": 50.00831112,
        "car_capacity": 15,
        "description": ""
    },
    {
        "name": "Pejevové",
        "longitude": 14.421035040000001,
        "latitude": 50.0082059,
        "car_capacity": 15,
        "description": ""
    },
    {
        "name": "Pejevové",
        "longitude": 14.420345980000002,
        "latitude": 50.00810015999999,
        "car_capacity": 8,
        "description": ""
    },
    {
        "name": "Pejevové",
        "longitude": 14.41979058,
        "latitude": 50.00802432,
        "car_capacity": 15,
        "description": ""
    },
    {
        "name": "Pejevové",
        "longitude": 14.418994560000002,
        "latitude": 50.007903799999994,
        "car_capacity": 10,
        "description": ""
    },
    {
        "name": "Pejevové",
        "longitude": 14.418384360000001,
        "latitude": 50.00764934,
        "car_capacity": 15,
        "description": ""
    },
    {
        "name": "Pejevové",
        "longitude": 14.418498779999998,
        "latitude": 50.007815480000005,
        "car_capacity": 10,
        "description": ""
    },
    {
        "name": "Pejevové",
        "longitude": 14.420336599999999,
        "latitude": 50.00850106,
        "car_capacity": 6,
        "description": ""
    },
    {
        "name": "Rodopská",
        "longitude": 14.424285079999999,
        "latitude": 50.00929714,
        "car_capacity": 12,
        "description": ""
    },
    {
        "name": "Rodopská",
        "longitude": 14.42627226,
        "latitude": 50.009754720000004,
        "car_capacity": 8,
        "description": ""
    },
    {
        "name": "Rodopská",
        "longitude": 14.42567886,
        "latitude": 50.00966734,
        "car_capacity": 12,
        "description": ""
    },
    {
        "name": "Rodopská",
        "longitude": 14.4247992,
        "latitude": 50.009552199999995,
        "car_capacity": 12,
        "description": ""
    },
    {
        "name": "Rakovského",
        "longitude": 14.42520728,
        "latitude": 50.01026458,
        "car_capacity": 18,
        "description": ""
    },
    {
        "name": "Rakovského",
        "longitude": 14.426224860000001,
        "latitude": 50.01005752,
        "car_capacity": 14,
        "description": ""
    },
    {
        "name": "Pirinská",
        "longitude": 14.42582644,
        "latitude": 50.00790314,
        "car_capacity": 15,
        "description": ""
    },
    {
        "name": "Plevenská",
        "longitude": 14.420124480000002,
        "latitude": 50.00911154,
        "car_capacity": 15,
        "description": ""
    },
    {
        "name": "Pertoldova",
        "longitude": 14.42294056,
        "latitude": 50.00117282,
        "car_capacity": 3,
        "description": ""
    },
    {
        "name": "Plovdivská",
        "longitude": 14.41892064,
        "latitude": 50.00630998,
        "car_capacity": 5,
        "description": ""
    },
    {
        "name": "Botevova",
        "longitude": 14.417495799999998,
        "latitude": 50.00887134,
        "car_capacity": 15,
        "description": ""
    },
    {
        "name": "Pirinská",
        "longitude": 14.4269273,
        "latitude": 50.0075719,
        "car_capacity": 10,
        "description": ""
    },
    {
        "name": "Pirinská",
        "longitude": 14.42613848,
        "latitude": 50.007341659999994,
        "car_capacity": 10,
        "description": ""
    },
    {
        "name": "Rakovského",
        "longitude": 14.42417648,
        "latitude": 50.00965438,
        "car_capacity": 5,
        "description": ""
    },
    {
        "name": "Poljanovova",
        "longitude": 14.42640458,
        "latitude": 50.00909858,
        "car_capacity": 9,
        "description": ""
    },
    {
        "name": "Rakovského",
        "longitude": 14.427443299999997,
        "latitude": 50.01009354285714,
        "car_capacity": 15,
        "description": ""
    },
    {
        "name": "Rakovského",
        "longitude": 14.428238480000001,
        "latitude": 50.01017924,
        "car_capacity": 20,
        "description": ""
    },
    {
        "name": "Levského",
        "longitude": 14.43585696,
        "latitude": 50.00694864,
        "car_capacity": 15,
        "description": ""
    },
    {
        "name": "Levského",
        "longitude": 14.435715340000002,
        "latitude": 50.00755392,
        "car_capacity": 22,
        "description": ""
    },
    {
        "name": "Vazovova",
        "longitude": 14.43739402,
        "latitude": 50.00606102,
        "car_capacity": 20,
        "description": ""
    },
    {
        "name": "Levského",
        "longitude": 14.43473976,
        "latitude": 50.007833039999994,
        "car_capacity": 15,
        "description": ""
    },
    {
        "name": "Levského",
        "longitude": 14.433765679999999,
        "latitude": 50.00767741999999,
        "car_capacity": 15,
        "description": ""
    },
    {
        "name": "Rilská",
        "longitude": 14.427213159999999,
        "latitude": 50.00882298,
        "car_capacity": 5,
        "description": ""
    },
    {
        "name": "Poljanovova",
        "longitude": 14.426647300000003,
        "latitude": 50.00878994,
        "car_capacity": 20,
        "description": ""
    },
    {
        "name": "Pertoldova",
        "longitude": 14.422350463636361,
        "latitude": 50.00160633636364,
        "car_capacity": 5,
        "description": ""
    },
    {
        "name": "Násirovo náměstí",
        "longitude": 14.421966119999999,
        "latitude": 50.001336980000005,
        "car_capacity": 3,
        "description": ""
    },
    {
        "name": "Pertoldova",
        "longitude": 14.4241842,
        "latitude": 50.000603639999994,
        "car_capacity": 5,
        "description": ""
    },
    {
        "name": "Hlídané Parkoviště Botenova",
        "longitude": 14.416451953846153,
        "latitude": 50.007715007692305,
        "car_capacity": 183,
        "description": ""
    },
    {
        "name": "Botevova",
        "longitude": 14.41664,
        "latitude": 50.00817068333333,
        "car_capacity": 40,
        "description": ""
    },
    {
        "name": "K Vltavě",
        "longitude": 14.416457,
        "latitude": 50.00730075714286,
        "car_capacity": 40,
        "description": ""
    },
    {
        "name": "Starochodovská",
        "longitude": 14.497100949999998,
        "latitude": 50.034120550000004,
        "car_capacity": 20,
        "description": ""
    },
    {
        "name": "Zdiměřická",
        "longitude": 14.511629339999999,
        "latitude": 50.023166159999995,
        "car_capacity": 11,
        "description": ""
    },
    {
        "name": "P3",
        "longitude": 14.267517800000002,
        "latitude": 50.10646285999999,
        "car_capacity": 72,
        "description": ""
    },
    {
        "name": "Štorkánova",
        "longitude": 14.39129974,
        "latitude": 50.06118998,
        "car_capacity": 7,
        "description": ""
    },
    {
        "name": "Štorkánova",
        "longitude": 14.39188578,
        "latitude": 50.06110638,
        "car_capacity": 7,
        "description": ""
    },
    {
        "name": "Vojetická",
        "longitude": 14.347595239999999,
        "latitude": 49.97647452,
        "car_capacity": 7,
        "description": ""
    },
    {
        "name": "Průběžná",
        "longitude": 14.60050388888889,
        "latitude": 49.989619399999995,
        "car_capacity": 30,
        "description": ""
    },
    {
        "name": "Přípotoční",
        "longitude": 14.460652757142856,
        "latitude": 50.06566628571429,
        "car_capacity": 78,
        "description": ""
    },
    {
        "name": "Hábova",
        "longitude": 14.308822110000003,
        "latitude": 50.045603959999994,
        "car_capacity": 70,
        "description": ""
    },
    {
        "name": "Ke křížkám",
        "longitude": 14.59752172,
        "latitude": 50.06524292,
        "car_capacity": 9,
        "description": ""
    },
    {
        "name": "Ke křížkám",
        "longitude": 14.597208080000001,
        "latitude": 50.065249019999996,
        "car_capacity": 13,
        "description": ""
    },
    {
        "name": "Pobřežní",
        "longitude": 14.44322345,
        "latitude": 50.0927856,
        "car_capacity": 42,
        "description": ""
    },
    {
        "name": "Sdružení",
        "longitude": 14.441422049999998,
        "latitude": 50.053451966666664,
        "car_capacity": 12,
        "description": ""
    },
    {
        "name": "Nekvasilova",
        "longitude": 14.46832642,
        "latitude": 50.09539742,
        "car_capacity": 18,
        "description": ""
    },
    {
        "name": "Drahoňovského",
        "longitude": 14.298828055555557,
        "latitude": 50.06471757222223,
        "car_capacity": 85,
        "description": ""
    },
    {
        "name": "Fantova",
        "longitude": 14.3194704,
        "latitude": 50.043636160000005,
        "car_capacity": 6,
        "description": ""
    },
    {
        "name": "Na Výrovně",
        "longitude": 14.312347909090908,
        "latitude": 50.04236640909091,
        "car_capacity": 8,
        "description": ""
    },
    {
        "name": "Trávníčkova",
        "longitude": 14.320353700000002,
        "latitude": 50.04503516000001,
        "car_capacity": 20,
        "description": ""
    },
    {
        "name": "Trávníčkova",
        "longitude": 14.32014805,
        "latitude": 50.04506053333333,
        "car_capacity": 26,
        "description": ""
    },
    {
        "name": "Trávníčkova",
        "longitude": 14.320399438461541,
        "latitude": 50.04500597692307,
        "car_capacity": 48,
        "description": ""
    },
    {
        "name": "Trávníčkova",
        "longitude": 14.32011438888889,
        "latitude": 50.04432482222222,
        "car_capacity": 24,
        "description": ""
    },
    {
        "name": "Jeremiášova",
        "longitude": 14.31438996,
        "latitude": 50.043189080000005,
        "car_capacity": 14,
        "description": ""
    },